{"type":"FeatureCollection","features":[{"type":"Feature","id":"1","properties":{"OBJECTID":1,"NAME":"KC North Precinct 2","ABB_NAME":"KC North Precinct 2","ADDRESS":"18118 73rd Ave NE","CITY":"Kenmore","STATE_NAME":"WA","ZIPCODE":"98028","PIN":"0114100955","DISTRICT":"KC"},"geometry":{"coordinates":[-122.24331346263,47.7595918701396],"type":"Point"}},{"type":"Feature","id":"2","properties":{"OBJECTID":2,"NAME":"Bellevue Police Department","ABB_NAME":"Bellevue PD","ADDRESS":"11511 Main St","CITY":"Bellevue","STATE_NAME":"WA","ZIPCODE":"98004","PIN":"3225059160","DISTRICT":"BE"},"geometry":{"coordinates":[-122.187224788828,47.6092412077228],"type":"Point"}},{"type":"Feature","id":"3","properties":{"OBJECTID":3,"NAME":"Crossroads Police Substation","ABB_NAME":"Crossroads","ADDRESS":"15600 NE 8th St","CITY":"Bellevue","STATE_NAME":"WA","ZIPCODE":"98007","PIN":"2625059206","DISTRICT":"BE"},"geometry":{"coordinates":[-122.131863910214,47.62162352805],"type":"Point"}},{"type":"Feature","id":"4","properties":{"OBJECTID":4,"NAME":"Hunts Point Police Department","ABB_NAME":"Hunts Point Police Department","ADDRESS":"501 Evergreen Point Rd","CITY":"Medina","STATE_NAME":"WA","ZIPCODE":"98039","PIN":"5427300050","DISTRICT":"ME"},"geometry":{"coordinates":[-122.23912374894,47.6153602815864],"type":"Point"}},{"type":"Feature","id":"5","properties":{"OBJECTID":5,"NAME":"Bothell Police Department","ABB_NAME":"Bothell PD","ADDRESS":"18410 101st Ave NE","CITY":"Bothell","STATE_NAME":"WA","ZIPCODE":"98011","PIN":"0967000310","DISTRICT":"BO"},"geometry":{"coordinates":[-122.205360657,47.7615190523042],"type":"Point"}},{"type":"Feature","id":"6","properties":{"OBJECTID":6,"NAME":"Clyde Hill Police Department","ABB_NAME":"Clyde Hill PD","ADDRESS":"9605 NE 24th St","CITY":"Clyde Hill","STATE_NAME":"WA","ZIPCODE":"98004","PIN":"8086000380","DISTRICT":"CH"},"geometry":{"coordinates":[-122.212136652408,47.63170575488],"type":"Point"}},{"type":"Feature","id":"7","properties":{"OBJECTID":7,"NAME":"Kenmore Storefront","ABB_NAME":"Kenmore","ADDRESS":"18118 73rd Ave NE ","CITY":"Kenmore","STATE_NAME":"WA","ZIPCODE":"98028","PIN":"0114100955","DISTRICT":"KM"},"geometry":{"coordinates":[-122.24331346263,47.7595918701396],"type":"Point"}},{"type":"Feature","id":"8","properties":{"OBJECTID":8,"NAME":"Kirkland Police Department","ABB_NAME":"Kirkland PD","ADDRESS":"123 5th Ave","CITY":"Kirkland","STATE_NAME":"WA","ZIPCODE":"98033","PIN":"3885808355","DISTRICT":"KI"},"geometry":{"coordinates":[-122.207128752232,47.6784013302372],"type":"Point"}},{"type":"Feature","id":"9","properties":{"OBJECTID":9,"NAME":"Lake Forest Park Police Department","ABB_NAME":"Lake Forest Park PD","ADDRESS":"17425 Ballinger Way NE","CITY":"Lake Forest Park","STATE_NAME":"WA","ZIPCODE":"98155","PIN":"4019301663","DISTRICT":"LF"},"geometry":{"coordinates":[-122.277569845758,47.7539089318879],"type":"Point"}},{"type":"Feature","id":"10","properties":{"OBJECTID":10,"NAME":"Mercer Island Police Station","ABB_NAME":"Mercer Island PD","ADDRESS":"9611 SE 36th St","CITY":"Mercer Island","STATE_NAME":"WA","ZIPCODE":"98040","PIN":"2655500075","DISTRICT":"MI"},"geometry":{"coordinates":[-122.210476744735,47.5775797305355],"type":"Point"}},{"type":"Feature","id":"11","properties":{"OBJECTID":11,"NAME":"Redmond Police Department","ABB_NAME":"Redmond PD","ADDRESS":"8701 160th Ave NE","CITY":"Redmond","STATE_NAME":"WA","ZIPCODE":"98052","PIN":"7202030020","DISTRICT":"RM"},"geometry":{"coordinates":[-122.129804499367,47.6800011982028],"type":"Point"}},{"type":"Feature","id":"12","properties":{"OBJECTID":12,"NAME":"Woodinville Police Department","ABB_NAME":"Woodinville PD","ADDRESS":"17301 133rd Ave NE","CITY":"Woodinville","STATE_NAME":"WA","ZIPCODE":"98072","PIN":"1026059025","DISTRICT":"WO"},"geometry":{"coordinates":[-122.162231971299,47.7529058027657],"type":"Point"}}]}